[
  { "name": "Birkirkara", "coordinates": [14.46111, 35.89722] },
  { "name": "Saint Paul's Bay", "coordinates": [14.41556, 35.95056] },
  { "name": "Mosta", "coordinates": [14.42556, 35.90917] },
  { "name": "Żabbar", "coordinates": [14.46056, 35.905] },
  { "name": "Birżebbuġa", "coordinates": [14.52278, 35.82111] },
  { "name": "Bormla (Cospicua)", "coordinates": [14.52167, 35.88056] },
  { "name": "Dingli", "coordinates": [14.38333, 35.85972] },
  { "name": "Il-Gudja", "coordinates": [14.50333, 35.85139] },
  { "name": "L-Iklin", "coordinates": [14.45556, 35.90972] },
  { "name": "L-Imdina (Mdina)", "coordinates": [14.40528, 35.88722] },
  { "name": "L-Imqabba (Mqabba)", "coordinates": [14.46750, 35.845] },
  { "name": "L-Imsida (Msida)", "coordinates": [14.42083, 35.9125] },
  { "name": "Il-Munxar", "coordinates": [14.22556, 36.02917] },
  { "name": "In-Nadur", "coordinates": [14.29444, 36.04861] },
  { "name": "In-Naxxar (Naxxar)", "coordinates": [14.43750, 35.93333] },
  { "name": "Paola", "coordinates": [14.50611, 35.87361] },
  { "name": "Pembroke", "coordinates": [14.47639, 35.93056] },
  { "name": "Il-Qala (Qala)", "coordinates": [14.31667, 36.0375] },
  { "name": "Qormi", "coordinates": [14.46667, 35.87917] },
  { "name": "Floriana", "coordinates": [14.50833, 35.89583] },
  { "name": "Birgu (Vittoriosa)", "coordinates": [14.51833, 35.89222] },
  { "name": "Marsaxlokk", "coordinates": [14.54306, 35.84111] },
  { "name": "Żebbuġ (Gozo)", "coordinates": [14.23583, 36.07222] },
  { "name": "Ħaż-Żebbuġ (Malta)", "coordinates": [14.44111, 35.87194] },
  { "name": "Xewkija", "coordinates": [14.26056, 36.03611] },
  { "name": "Xagħra", "coordinates": [14.26444, 36.05] },
  { "name": "Il-Mellieħa", "coordinates": [14.35139, 35.95833] },
  { "name": "Tarxien", "coordinates": [14.51306, 35.86667] },
  { "name": "Attard", "coordinates": [14.43194, 35.89167] },
  { "name": "Valletta", "coordinates": [14.5125, 35.89833] },
  { "name": "Imtarfa", "coordinates": [14.39722, 35.89056] },
  { "name": "Ta’ Kerċem", "coordinates": [14.21611, 36.04389] },
  { "name": "Il-Marsa", "coordinates": [14.49222, 35.87639] },
  { "name": "Imġarr", "coordinates": [14.36639, 35.92056] },
  { "name": "Pietà", "coordinates": [14.49444, 35.8925] },
  { "name": "Victoria (Rabat Gozo)", "coordinates": [14.24167, 36.04528] },
  { "name": "San Ġwann", "coordinates": [14.475, 35.90889] },
  { "name": "Ħal Għargħur", "coordinates": [14.44667, 35.92361] },
  { "name": "L-Għarb", "coordinates": [14.20472, 36.06806] },
  { "name": "L-Għasri", "coordinates": [14.22167, 36.06528] },
  { "name": "Ħal Għaxaq", "coordinates": [14.51667, 35.84583] },
  { "name": "Il-Gżira", "coordinates": [14.49278, 35.90556] },
  { "name": "Ħamrun", "coordinates": [14.48972, 35.89917] },
  { "name": "Safi", "coordinates": [14.49167, 35.83472] },
  { "name": "Ir-Rabat (Malta)", "coordinates": [14.3975, 35.8825] },
  { "name": "Ħal Luqa", "coordinates": [14.48833, 35.85889] },
  { "name": "Is-Siġġiewi", "coordinates": [14.38333, 35.8475] },
  { "name": "Senglea (Isla)", "coordinates": [14.51944, 35.89] }
]
